[
{"lat": 39.72675262079634, "averagePrice": "47900", "lng": 115.86283631290442, "houseName": "远洋新仕界", "count": 61.37940145729306},
{"lat": 39.772849334065356, "averagePrice": "1400", "lng": 116.4327020409797, "houseName": "首开龙湖天琅", "count": 1.7939699799626365},
{"lat": 39.93632527613467, "averagePrice": "67000", "lng": 116.10666089013267, "houseName": "中骏西山天璟", "count": 85.85427761249761},
{"lat": 40.24082654659029, "averagePrice": "65000", "lng": 116.29822991379902, "houseName": "泰禾昌平拾景园", "count": 83.29146335540813},
{"lat": 39.76391815451109, "averagePrice": "68000", "lng": 116.5056750599468, "houseName": "亦庄金茂府", "count": 87.13568474104235},
{"lat": 39.96521735149462, "averagePrice": "120000", "lng": 116.544489859185, "houseName": "恒大华府", "count": 153.76885542536886},
{"lat": 39.91526372055741, "averagePrice": "150000", "lng": 116.41669773479356, "houseName": "霞公府", "count": 192.21106928171108},
{"lat": 39.7345434687325, "averagePrice": "55000", "lng": 116.19592455465873, "houseName": "五矿名品", "count": 70.47739206996073},
{"lat": 39.926686157113416, "averagePrice": "180000", "lng": 116.46828232414444, "houseName": "首创天禧", "count": 230.65328313805327},
{"lat": 39.77323357964714, "averagePrice": "87500", "lng": 116.42023507324771, "houseName": "鸿坤林语墅", "count": 112.12312374766479},
{"lat": 39.95987829516252, "averagePrice": "150000", "lng": 116.50433578883823, "houseName": "东山condo", "count": 192.21106928171108},
{"lat": 40.031338260155415, "averagePrice": "110000", "lng": 116.42622477765931, "houseName": "天润福熙大道", "count": 140.95478413992146},
{"lat": 39.721405578188865, "averagePrice": "50000", "lng": 116.09929633003632, "houseName": "天恒乐墅", "count": 64.07035642723702},
{"lat": 39.94016564321864, "averagePrice": "160000", "lng": 116.48876890982525, "houseName": "骏豪中央公园广场", "count": 205.02514056715847},
{"lat": 40.064901948561236, "averagePrice": "150000", "lng": 116.52820323533979, "houseName": "泰禾北京院子", "count": 192.21106928171108},
{"lat": 39.872124313683, "averagePrice": "4300", "lng": 116.4907761869619, "houseName": "山水文园五期", "count": 5.510050652742384},
{"lat": 39.912640677625745, "averagePrice": "165000", "lng": 116.47144477545501, "houseName": "梵悦108", "count": 211.43217620988216},
{"lat": 39.87587856935092, "averagePrice": "100000", "lng": 116.5638967283547, "houseName": "保利首开天誉", "count": 128.14071285447403},
{"lat": 40.10826179505682, "averagePrice": "3500", "lng": 116.3788167968957, "houseName": "珠江紫宸山", "count": 4.484924949906591},
{"lat": 39.91252537726017, "averagePrice": "65000", "lng": 116.11013103443635, "houseName": "电建地产泷悦长安", "count": 83.29146335540813},
{"lat": 39.831149517616986, "averagePrice": "2700", "lng": 116.47918132745625, "houseName": "江南山水", "count": 3.459799247070799},
{"lat": 40.020219791325296, "averagePrice": "72000", "lng": 116.65371186173505, "houseName": "格拉斯小镇", "count": 92.26131325522131},
{"lat": 39.793886119614726, "averagePrice": "1300", "lng": 116.08812919061451, "houseName": "北京半岛", "count": 1.6658292671081625},
{"lat": 39.7246948849205, "averagePrice": "53000", "lng": 116.20179120558836, "houseName": "万年广阳郡九号", "count": 67.91457781287124},
{"lat": 40.15980388896105, "averagePrice": "930", "lng": 117.10920287085996, "houseName": "中昂邑上原著", "count": 0},
{"lat": 40.22079214219846, "averagePrice": "36000", "lng": 116.41582673417786, "houseName": "凯德麓语", "count": 46.130656627610655},
{"lat": 40.00213396914444, "averagePrice": "75000", "lng": 116.50187446677482, "houseName": "首开琅樾", "count": 96.10553464085554},
{"lat": 39.95276120160914, "averagePrice": "105000", "lng": 116.11923716188252, "houseName": "香山四季", "count": 134.54774849719774},
{"lat": 39.72675262079634, "averagePrice": "51500", "lng": 115.86283631290442, "houseName": "北京城建国誉府", "count": 65.99246712005413},
{"lat": 39.80781535278751, "averagePrice": "55000", "lng": 116.1624360459418, "houseName": "领秀翡翠山", "count": 70.47739206996073},
{"lat": 40.12307754980977, "averagePrice": "60000", "lng": 116.4225480967494, "houseName": "京基鹭府", "count": 76.88442771268443},
{"lat": 39.82730022121239, "averagePrice": "75000", "lng": 116.43089722393893, "houseName": "国韵村", "count": 96.10553464085554},
{"lat": 40.21052390145473, "averagePrice": "50000", "lng": 116.66276318805357, "houseName": "恒华湖公馆", "count": 64.07035642723702},
{"lat": 39.80240046781088, "averagePrice": "56000", "lng": 116.10899413808461, "houseName": "亿城燕西华府", "count": 71.75879919850546},
{"lat": 39.983029421257434, "averagePrice": "81000", "lng": 116.47006193113938, "houseName": "顺景石上清泉", "count": 103.79397741212398},
{"lat": 40.185708653428, "averagePrice": "45000", "lng": 116.65623851127008, "houseName": "鲁能7号别墅", "count": 57.66332078451332},
{"lat": 39.72675262079634, "averagePrice": "52000", "lng": 115.86283631290442, "houseName": "天恒水岸壹号", "count": 66.6331706843265},
{"lat": 40.0800959304039, "averagePrice": "80000", "lng": 116.25500255435337, "houseName": "首创天阅西山", "count": 102.51257028357924},
{"lat": 39.55489638565033, "averagePrice": "24500", "lng": 116.6828039447098, "houseName": "廊坊孔雀城大公馆", "count": 31.39447464934614},
{"lat": 39.80784395384014, "averagePrice": "71000", "lng": 116.36765625013804, "houseName": "公园懿府", "count": 90.97990612667657},
{"lat": 40.07353480744665, "averagePrice": "105000", "lng": 116.25313976786143, "houseName": "五矿万科如园", "count": 134.54774849719774},
{"lat": 39.67420103542284, "averagePrice": "47000", "lng": 116.42242274450362, "houseName": "一品嘉园", "count": 60.2261350416028},
{"lat": 39.883788129327094, "averagePrice": "72000", "lng": 116.68524166649087, "houseName": "华业东方玫瑰C区", "count": 92.26131325522131},
{"lat": 39.74310003286535, "averagePrice": "22000", "lng": 117.05130555355426, "houseName": "三田雍泓青海城", "count": 28.19095682798429},
{"lat": 39.8280839546906, "averagePrice": "68000", "lng": 116.52273415736106, "houseName": "通泰国际公馆", "count": 87.13568474104235},
{"lat": 39.36454037593519, "averagePrice": null, "lng": 116.32797415669266, "houseName": "红杉郡", "count": 0},
{"lat": 39.34313388133623, "averagePrice": "38000", "lng": 117.08360645843828, "houseName": "英伦假日", "count": 48.69347088470013},
{"lat": 39.57818550241422, "averagePrice": "23000", "lng": 115.90906016178054, "houseName": "长海御墅", "count": 29.47236395652903},
{"lat": 40.30389478147509, "averagePrice": "18000", "lng": 115.6327076007428, "houseName": "官厅泊爱蓝岛", "count": 23.065328313805328},
{"lat": 39.38024090730448, "averagePrice": "15000", "lng": 117.06078960358657, "houseName": "亿博香墅里", "count": 19.221106928171107},
{"lat": 40.154951470441354, "averagePrice": "1400", "lng": 116.72822904528138, "houseName": "水色时光四区", "count": 1.7939699799626365},
{"lat": 40.001250481727794, "averagePrice": "50000", "lng": 116.64988030037892, "houseName": "8哩岛", "count": 64.07035642723702},
{"lat": 40.18970208118051, "averagePrice": "1100", "lng": 116.66286908569694, "houseName": "北辰墅院1900", "count": 1.4095478413992144},
{"lat": 39.831149517616986, "averagePrice": "75000", "lng": 116.47918132745625, "houseName": "江南府", "count": 96.10553464085554},
{"lat": 39.314394981648526, "averagePrice": "8800", "lng": 116.96541372284514, "houseName": "尚港华府", "count": 11.276382731193715},
{"lat": 39.616117563204725, "averagePrice": "400", "lng": 115.44462792481454, "houseName": "一渡新新小镇", "count": 0},
{"lat": 39.36454037593519, "averagePrice": "21500", "lng": 116.32797415669266, "houseName": "尚城国际", "count": 27.55025326371192},
{"lat": 39.75357516482967, "averagePrice": "22000", "lng": 116.99956706297846, "houseName": "御湖湾", "count": 28.19095682798429},
{"lat": 39.934827169768774, "averagePrice": "8000", "lng": 116.41210672350167, "houseName": "北河沿甲柒拾柒号", "count": 10.251257028357923},
{"lat": 40.154951470441354, "averagePrice": "55000", "lng": 116.72822904528138, "houseName": "新世界丽樽", "count": 70.47739206996073},
{"lat": 40.41359531155529, "averagePrice": "19000", "lng": 116.85463369921858, "houseName": "远大美域", "count": 24.346735442350067},
{"lat": 40.017340006499, "averagePrice": "100000", "lng": 116.41466961427417, "houseName": "紫玉山庄", "count": 128.14071285447403},
{"lat": 40.532843361005, "averagePrice": "30000", "lng": 117.00120053501465, "houseName": "懿品府小区", "count": 38.442213856342214},
{"lat": 39.48248181057233, "averagePrice": "25000", "lng": 115.99905364071243, "houseName": "华融现代城", "count": 32.03517821361851},
{"lat": 40.545156469742075, "averagePrice": "1200", "lng": 116.16973528629558, "houseName": "清凉盛景", "count": 1.5376885542536884},
{"lat": 40.05152265437314, "averagePrice": "120000", "lng": 116.5364936528744, "houseName": "中粮瑞府", "count": 153.76885542536886},
{"lat": 39.48327299755013, "averagePrice": "23500", "lng": 116.04091337267069, "houseName": "天地新城启承", "count": 30.1130675208014},
{"lat": 39.762420731966614, "averagePrice": "21000", "lng": 116.9976310924349, "houseName": "溪语蓝湾（天琴湾二期）", "count": 26.909549699439548},
{"lat": 40.0030805411208, "averagePrice": "120000", "lng": 116.4865875105384, "houseName": "首开国风尚樾", "count": 153.76885542536886},
{"lat": 39.39956211439793, "averagePrice": "16000", "lng": 117.0777575113136, "houseName": "美克嘉美湾", "count": 20.502514056715846},
{"lat": 39.94831002362024, "averagePrice": "150000", "lng": 116.45148438120971, "houseName": "梵悦万国府", "count": 192.21106928171108},
{"lat": 40.40169543122263, "averagePrice": "23000", "lng": 115.91872368330414, "houseName": "永恒长城里", "count": 29.47236395652903},
{"lat": 39.91252537726017, "averagePrice": "56000", "lng": 116.11013103443635, "houseName": "丽景长安", "count": 71.75879919850546},
{"lat": 39.785893871355476, "averagePrice": "2000", "lng": 116.49009957337041, "houseName": "中信墅", "count": 2.5628142570894807},
{"lat": 39.48515181996546, "averagePrice": "15000", "lng": 116.97301078237356, "houseName": "绿洲湾8号", "count": 19.221106928171107},
{"lat": 39.342569733014834, "averagePrice": "22000", "lng": 116.64427067082518, "houseName": "国瑞生态城", "count": 28.19095682798429},
{"lat": 39.48248181057233, "averagePrice": "11000", "lng": 115.99905364071243, "houseName": "桃源新都孔雀城", "count": 14.095478413992145},
{"lat": 40.00782835282919, "averagePrice": "1400", "lng": 116.42592264607562, "houseName": "八斗", "count": 1.7939699799626365},
{"lat": 40.34798364385029, "averagePrice": "29000", "lng": 115.63406061974166, "houseName": "北京恒大文化旅游城", "count": 37.16080672779747},
{"lat": 39.45915411009363, "averagePrice": "880", "lng": 117.2036868339419, "houseName": "翠金湖美墅岛", "count": 0},
{"lat": 39.49994732011996, "averagePrice": "17000", "lng": 115.98536110083145, "houseName": "卓悦城", "count": 21.78392118526059},
{"lat": 39.35181100513116, "averagePrice": "9800", "lng": 117.09861024182877, "houseName": "首城南湖1號", "count": 12.557789859738456},
{"lat": 39.41000368925733, "averagePrice": "15000", "lng": 117.00855685896278, "houseName": "经纬城市绿洲武清二期", "count": 19.221106928171107},
{"lat": 39.34476350448391, "averagePrice": "12800", "lng": 117.09060993295691, "houseName": "自在城", "count": 16.402011245372677},
{"lat": 39.26862650835634, "averagePrice": "9500", "lng": 116.9533183185263, "houseName": "中浩智城", "count": 12.173367721175033},
{"lat": 39.40971578281827, "averagePrice": "13000", "lng": 117.2382033248573, "houseName": "梅尚国际住区", "count": 16.658292671081625},
{"lat": 39.49051864881535, "averagePrice": "16000", "lng": 117.10406795175128, "houseName": "恒大山水城", "count": 20.502514056715846},
{"lat": 39.485392962402116, "averagePrice": "18500", "lng": 116.96088641399017, "houseName": "哈兰庄园", "count": 23.7060318780777},
{"lat": 39.457042575494015, "averagePrice": "26000", "lng": 117.0345779137272, "houseName": "首创国际半岛", "count": 33.31658534216325},
{"lat": 39.421944903505285, "averagePrice": "13000", "lng": 117.14118902469622, "houseName": "碧桂园莫奈的湖", "count": 16.658292671081625},
{"lat": 39.39250842104694, "averagePrice": "27800", "lng": 117.0353112150343, "houseName": "枫丹天城", "count": 35.62311817354379},
{"lat": 39.393599927504084, "averagePrice": "16800", "lng": 117.07518533475702, "houseName": "泽信金汇湾", "count": 21.52763975955164},
{"lat": 39.457042575494015, "averagePrice": null, "lng": 117.0345779137272, "houseName": "鸿坤原乡半岛", "count": 0},
{"lat": 40.20271909151809, "averagePrice": "46000", "lng": 116.24282650555568, "houseName": "花雨汀", "count": 58.94472791305806},
{"lat": 40.15739541830026, "averagePrice": "36000", "lng": 116.95791900456854, "houseName": "浅山香邑", "count": 46.130656627610655},
{"lat": 40.21952438247918, "averagePrice": "49000", "lng": 116.28312804892141, "houseName": "北京风景", "count": 62.78894929869228},
{"lat": 40.00381087655354, "averagePrice": "180000", "lng": 116.2640510240604, "houseName": "万柳书院", "count": 230.65328313805327},
{"lat": 40.265158279753024, "averagePrice": "29000", "lng": 116.99927875272333, "houseName": "紫贵御园", "count": 37.16080672779747},
{"lat": 40.14978236799279, "averagePrice": "37000", "lng": 117.09398213860406, "houseName": "天润香墅湾1号", "count": 47.4120637561554},
{"lat": 39.88687840966072, "averagePrice": "115000", "lng": 116.28449542172123, "houseName": "紫辰院", "count": 147.36181978264514},
{"lat": 39.911792199209344, "averagePrice": "180000", "lng": 116.38178193809593, "houseName": "上国阙", "count": 230.65328313805327},
{"lat": 40.17689983091028, "averagePrice": "50000", "lng": 116.72788405118503, "houseName": "中铁花溪渡", "count": 64.07035642723702},
{"lat": 39.97068360774083, "averagePrice": "85000", "lng": 116.5353272660511, "houseName": "利锦府", "count": 108.91960592630294},
{"lat": 39.879349690347816, "averagePrice": "3500", "lng": 116.21548834073322, "houseName": "园博府", "count": 4.484924949906591},
{"lat": 39.83699666058161, "averagePrice": "90000", "lng": 116.43808366801875, "houseName": "中冶德贤公馆", "count": 115.32664156902663},
{"lat": 39.83699666058161, "averagePrice": "79000", "lng": 116.43089722393893, "houseName": "首开保利熙悦诚郡", "count": 101.2311631550345},
{"lat": 40.13853037160966, "averagePrice": "63000", "lng": 116.49861575574072, "houseName": "春晖园随园", "count": 80.72864909831864},
{"lat": 39.92671703313749, "averagePrice": "81000", "lng": 116.68189651331414, "houseName": "月亮河七星公馆", "count": 103.79397741212398},
{"lat": 39.91252537726017, "averagePrice": "90000", "lng": 116.11013103443635, "houseName": "电建地产泷悦长安", "count": 115.32664156902663},
{"lat": 39.68656086319408, "averagePrice": "32500", "lng": 116.09213986959782, "houseName": "北京城建琨廷", "count": 41.64573167770406},
{"lat": 39.91252963139318, "averagePrice": "57000", "lng": 116.22764287870717, "houseName": "泰禾长安中心", "count": 73.0402063270502},
{"lat": 39.770909910473904, "averagePrice": "48000", "lng": 116.22375114525477, "houseName": "长阳光和作用", "count": 61.50754217014754},
{"lat": 40.44965124583138, "averagePrice": "28000", "lng": 116.83864484927705, "houseName": "阳光城君山墅", "count": 35.87939959925273},
{"lat": 39.9711735274183, "averagePrice": "150000", "lng": 116.4780642863512, "houseName": "霄云路8号", "count": 192.21106928171108},
{"lat": 39.87634701864569, "averagePrice": "130000", "lng": 116.44633701158665, "houseName": "首开璞瑅公馆", "count": 166.58292671081625},
{"lat": 39.830492235754356, "averagePrice": "90000", "lng": 116.33055633588108, "houseName": "首开华润城", "count": 115.32664156902663},
{"lat": 39.84953730661507, "averagePrice": "130000", "lng": 116.31624183757958, "houseName": "懋源钓云台", "count": 166.58292671081625},
{"lat": 39.72326473050158, "averagePrice": "2350", "lng": 116.40897871142772, "houseName": "华远和墅", "count": 3.01130675208014},
{"lat": 40.36777347497877, "averagePrice": "39000", "lng": 116.63538813611196, "houseName": "天恒半山世家", "count": 49.974878013244876},
{"lat": 39.884694706155905, "averagePrice": "1800", "lng": 116.07753894119462, "houseName": "京投发展檀香府", "count": 2.3065328313805327}
]
